[
  {
    "id": "1",
    "name": "10th Planet Nashville",
    "city": "Nashville",
    "state": "Tennessee",
    "latitude": 36.1627,
    "longitude": -86.7816,
    "logo": "https://img1.wsimg.com/isteam/ip/b051e835-a184-4dc9-a901-d7aac3095045/outlined_outlined%20blk(3).png/:/",
    "openMatTimes": [
      "Sunday: 1pm - 2pm",
      "Saturday: 6am - 7am",
      "Saturday: 10am - 11am"
    ],
    "address": "",
    "email": "",
    "phone": "",
    "vetted": false
  },
  {
    "id": "2",
    "name": "Profectus",
    "city": "Hendersonville",
    "state": "Tennessee",
    "latitude": 36.30381,
    "longitude": -86.63111,
    "logo": "https://smoothcomp.com/pictures/t/825642-k200/profectus-jiu-jitsu.png",
    "openMatTimes": [
      "Saturday: 11am - 1pm"
    ],
    "address": "",
    "email": "",
    "phone": "",
    "vetted": false
  },
  {
    "id": "3",
    "name": "Tennesee BJJ",
    "city": "Spring Hill",
    "state": "Tennessee",
    "latitude": 35.75557,
    "longitude": -86.92513,
    "logo": "https://www.tbjja.com/wp-content/uploads/2018/08/tbjja-aff-logo-298x300.png",
    "openMatTimes": [
      "Sunday: 1pm - 2pm",
      "Saturday: 6am - 7am",
      "Saturday: 10am - 11am"
    ],
    "address": "",
    "email": "",
    "phone": "",
    "vetted": false
  },
  {
    "id": "4",
    "name": "Random",
    "city": "Brentwood",
    "state": "Tennessee",
    "latitude": 35.78557,
    "longitude": -86.92513,
    "logo": null,
    "openMatTimes": [
      "Sunday: 1pm - 2pm",
      "Saturday: 6am - 7am",
      "Saturday: 10am - 11am"
    ],
    "address": "",
    "email": "",
    "phone": "",
    "vetted": false
  },
  {
    "id": "5",
    "name": "Profectus",
    "city": "Brentwood",
    "state": "Tennessee",
    "latitude": 35.96571,
    "longitude": -86.81565,
    "logo": "https://smoothcomp.com/pictures/t/825642-k200/profectus-jiu-jitsu.png",
    "openMatTimes": [
      "Friday: 6pm - 7pm",
      "Saturday: 11am - 1am"
    ],
    "address": "",
    "email": "",
    "phone": "",
    "vetted": false
  },
  {
    "id": "6",
    "name": "Profectus",
    "city": "Nashville",
    "state": "Tennessee",
    "latitude": 36.15464,
    "longitude": -86.76342,
    "logo": "https://smoothcomp.com/pictures/t/825642-k200/profectus-jiu-jitsu.png",
    "openMatTimes": [
      "Monday: 1pm - 2pm",
      "Monday: 5pm - 6pm",
      "Tuesday: 1pm - 2pm",
      "Tuesday: 5pm - 6pm",
      "Wednesday: 10am - 11am",
      "Wednesday: 5pm - 6pm",
      "Thursday: 1pm -2pm",
      "Thursday: 5pm - 6pm",
      "Friday: 12pm - 1pm",
      "Sunday: 2pm - 3pm"
    ],
    "address": "",
    "email": "",
    "phone": "",
    "vetted": false
  },
  {
    "id": "7",
    "name": "Profectus",
    "city": "Columbia",
    "state": "Tennessee",
    "latitude": 35.61386,
    "longitude": -87.03365,
    "logo": "https://smoothcomp.com/pictures/t/825642-k200/profectus-jiu-jitsu.png",
    "openMatTimes": [
      "Sunday: 3pm - 4:30pm"
    ],
    "address": "",
    "email": "",
    "phone": "",
    "vetted": false
  },
  {
    "id": "8",
    "name": "Legion",
    "city": "Hendersonville",
    "state": "Tennessee",
    "latitude": 36.30837,
    "longitude": -86.62639,
    "logo": "https://res.cloudinary.com/display97/image/upload/q_auto,fl_lossy,f_auto/7814/logo-269363.png",
    "openMatTimes": [
      "Saturday: 11am - 12am"
    ],
    "address": "",
    "email": "",
    "phone": "",
    "vetted": false
  },
  {
    "id": "9",
    "name": "Legion",
    "city": "Nashville",
    "state": "Tennessee",
    "latitude": 36.20497,
    "longitude": -86.74182,
    "logo": "https://res.cloudinary.com/display97/image/upload/q_auto,fl_lossy,f_auto/7814/logo-269363.png",
    "openMatTimes": [
      "Saturday: 11am - 12am"
    ],
    "address": "",
    "email": "",
    "phone": "",
    "vetted": false
  },
  {
    "id": "10",
    "name": "Legion",
    "city": "Nashville",
    "state": "Tennessee",
    "latitude": 36.30837,
    "longitude": -86.62639,
    "logo": "https://res.cloudinary.com/display97/image/upload/q_auto,fl_lossy,f_auto/7814/logo-269363.png",
    "openMatTimes": [
      "Friday: 5pm - 6pm",
      "Saturday: 11am - 12am"
    ],
    "address": "",
    "email": "",
    "phone": "",
    "vetted": false
  },
  {
    "id": "11",
    "name": "Shawn Hammonds",
    "city": "Nashville",
    "state": "Tennessee",
    "latitude": 36.10882,
    "longitude": -86.75282,
    "logo": "https://shawnhammondsjiujitsu.com/wp-content/uploads/2023/10/Shawn-Hammonds-Logo-240px.png",
    "openMatTimes": [
      "None Listed Call: 615-981-6150"
    ],
    "address": "",
    "email": "",
    "phone": "",
    "vetted": false
  },
  {
    "id": "12",
    "name": "Renzo Gracie Spring Hill",
    "city": "Spring Hill",
    "state": "Tennessee",
    "latitude": 35.77721,
    "longitude": -86.91243,
    "logo": "https://images.squarespace-cdn.com/content/v1/64d84c48cea11a664e0d30e0/c62fb29a-1258-4d4f-b916-de031035838c/Logo.png?format=1500w",
    "openMatTimes": [
      "None Listed Call: 615-505-1818"
    ],
    "address": "",
    "email": "",
    "phone": "",
    "vetted": false
  },
  {
    "id": "13",
    "name": "Renzo Gracie Columbia",
    "city": "Columbia",
    "state": "Tennessee",
    "latitude": 35.63907,
    "longitude": -87.01475,
    "logo": "https://images.squarespace-cdn.com/content/v1/64d84c48cea11a664e0d30e0/c62fb29a-1258-4d4f-b916-de031035838c/Logo.png?format=1500w",
    "openMatTimes": [
      "None Listed Call: 615-649-7363"
    ],
    "address": "",
    "email": "",
    "phone": "",
    "vetted": false
  },
  {
    "id": "14",
    "name": "RMA ",
    "city": "Franklin",
    "state": "Tennessee",
    "latitude": 35.93644,
    "longitude": -86.92406,
    "logo": "https://lirp.cdn-website.com/15af6fd8/dms3rep/multi/opt/RMA+WHIte+LOGO-1920w.png",
    "openMatTimes": [
      "Monday: 8pm - 9pm,Tuesday: 8pm - 9pm,Wednesday: 8pm - 9pm,Thursday : 8pm - 9pm"
    ],
    "address": "",
    "email": "",
    "phone": "",
    "vetted": false
  },
  {
    "id": "15",
    "name": "Gracie Barra Bellevue ",
    "city": "Bellevue",
    "state": "Tennessee",
    "latitude": 36.05209,
    "longitude": -86.95255,
    "logo": "https://graciebarra.com/bellevue-tn/wp-content/uploads/sites/193/2018/01/GB-BELLEVUE-TN_Resize.png",
    "openMatTimes": [
      "Monday: 8pm - 9pm,Tuesday: 8pm - 9pm,Wednesday: 8pm - 9pm,Thursday : 8pm - 9pm"
    ],
    "address": "",
    "email": "",
    "phone": "",
    "vetted": false
  },
  {
    "id": "16",
    "name": "Renzo Gracie Nashville",
    "city": "Nashville",
    "state": "Tennessee",
    "latitude": 36.03717,
    "longitude": -86.78537,
    "logo": "https://renzogracienashville.com/wp-content/uploads/2023/12/Renzo-Lion-Logo.png",
    "openMatTimes": [
      "Sunday: 10am - 11am"
    ],
    "address": "",
    "email": "",
    "phone": "",
    "vetted": false
  },
  {
    "id": "17",
    "name": "Artista BJJ",
    "city": "Nashville",
    "state": "Tennessee",
    "latitude": 36.14373,
    "longitude": -86.77844,
    "logo": "",
    "openMatTimes": [
      "Sunday: 11am - 12pm"
    ],
    "address": "",
    "email": "",
    "phone": "",
    "vetted": false
  },
  {
    "id": "18",
    "name": "Broken Anvil BJJ",
    "city": "Nashville",
    "state": "Tennessee",
    "latitude": 36.28325,
    "longitude": -86.69164,
    "logo": "",
    "openMatTimes": [
      "Friday: 5pm - 6:30pm"
    ],
    "address": "",
    "email": "",
    "phone": "",
    "vetted": false
  },
  {
    "id": "19",
    "name": "6ONE5 BJJ",
    "city": "Hendersonville",
    "state": "Tennessee",
    "latitude": 36.30286,
    "longitude": -86.64323,
    "logo": "",
    "openMatTimes": [
      "None Listed Call: 615-747-7025"
    ],
    "address": "",
    "email": "",
    "phone": "",
    "vetted": false
  },
  {
    "id": "20",
    "name": "Software BJJ",
    "city": "Hermitage",
    "state": "Tennessee",
    "latitude": 36.20144,
    "longitude": -86.62058,
    "logo": "",
    "openMatTimes": [
      "None Listed Call: 615-784-3133"
    ],
    "address": "",
    "email": "",
    "phone": "",
    "vetted": false
  },
  {
    "id": "21",
    "name": "Checkmat Mt. Juliet",
    "city": "Mt. Juliet",
    "state": "Tennessee",
    "latitude": 36.21978,
    "longitude": -86.57280,
    "logo": "",
    "openMatTimes": [
      "None Listed Call: 615-678-6685"
    ],
    "address": "",
    "email": "",
    "phone": "",
    "vetted": false
  },
  {
    "id": "22",
    "name": "Ivy Jiu Jitsu",
    "city": "Mt. Juliet",
    "state": "Tennessee",
    "latitude": 36.19401,
    "longitude": -86.51819,
    "logo": "",
    "openMatTimes": [
      "None Listed Call: 615-678-6685"
    ],
    "address": "",
    "email": "",
    "phone": "",
    "vetted": false
  },
  {
    "id": "23",
    "name": "Tennesee BJJ",
    "city": "Murfreesboro",
    "state": "Tennessee",
    "latitude": 35.86376,
    "longitude": -86.41397,
    "logo": "https://www.tbjja.com/wp-content/uploads/2018/08/tbjja-aff-logo-298x300.png",
    "openMatTimes": [
      "None Listed Call: 615-809-1145"
    ],
    "address": "",
    "email": "",
    "phone": "",
    "vetted": false
  },
  {
    "id": "24",
    "name": "Fightzone",
    "city": "Murfreesboro",
    "state": "Tennessee",
    "latitude": 35.85488,
    "longitude": -86.39629,
    "logo": "https://www.tbjja.com/wp-content/uploads/2018/08/tbjja-aff-logo-298x300.png",
    "openMatTimes": [
      "None Listed Call: 615-809-1145"
    ],
    "address": "",
    "email": "",
    "phone": "",
    "vetted": false
  },
  {
    "id": "25",
    "name": "Gracie Barra Murfreesboro",
    "city": "Murfreesboro",
    "state": "Tennessee",
    "latitude": 35.84817,
    "longitude": -86.39506,
    "logo": "",
    "openMatTimes": [
      "None Listed"
    ],
    "address": "",
    "email": "",
    "phone": "",
    "vetted": false
  },
  {
    "id": "26",
    "name": "Beacon Jiu Jitsu",
    "city": "Murfreesboro",
    "state": "Tennessee",
    "latitude": 35.81888,
    "longitude": -86.39762,
    "logo": "",
    "openMatTimes": [
      "None Listed"
    ],
    "address": "",
    "email": "",
    "phone": "",
    "vetted": false
  },
  {
    "id": "27",
    "name": "ADG Jiu Jitsu",
    "city": "Smyrna",
    "state": "Tennessee",
    "latitude": 35.98118,
    "longitude": -86.54232,
    "logo": "",
    "openMatTimes": [
      "None Listed"
    ],
    "address": "",
    "email": "",
    "phone": "",
    "vetted": false
  },
  {
    "id": "28",
    "name": "One Nation Jiu Jitsu",
    "city": "Smyrna",
    "state": "Tennessee",
    "latitude": 35.96726,
    "longitude": -86.50364,
    "logo": "",
    "openMatTimes": [
      "None Listed"
    ],
    "address": "",
    "email": "",
    "phone": "",
    "vetted": false
  },
  {
    "id": "29",
    "name": "Tennessee BJJ",
    "city": "Clarksville",
    "state": "Tennessee",
    "latitude": 36.51085,
    "longitude": -87.26942,
    "logo": "https://www.tbjja.com/wp-content/uploads/2018/08/tbjja-aff-logo-298x300.png",
    "openMatTimes": [
      "None Listed"
    ],
    "address": "",
    "email": "",
    "phone": "",
    "vetted": false
  },
  {
    "id": "30",
    "name": "Slow Roll BJJ",
    "city": "Clarksville",
    "state": "Tennessee",
    "latitude": 36.55292,
    "longitude": -87.32376,
    "logo": "",
    "openMatTimes": [
      "None Listed"
    ],
    "address": "",
    "email": "",
    "phone": "",
    "vetted": false
  },
  {
    "id": "32",
    "name": "Renzo Gracie Clarksville",
    "city": "Clarksville",
    "state": "Tennessee",
    "latitude": 36.57213,
    "longitude": -87.29219,
    "logo": "",
    "openMatTimes": [
      "None Listed"
    ],
    "address": "",
    "email": "",
    "phone": "",
    "vetted": false
  },
  {
    "id": "33",
    "name": "Palm Jiu Jitsu Studio",
    "city": "The Palm Jumeirah",
    "state": "Dubai",
    "latitude": 25.11796,
    "longitude": 55.14073,
    "logo": "",
    "openMatTimes": [
      "None Listed"
    ],
    "address": "",
    "email": "",
    "phone": "",
    "vetted": false
  },
  {
    "id": "34",
    "name": "Alliance BJJ",
    "city": "Dubai Inbestments Park",
    "state": "Dubai",
    "latitude": 25.13943,
    "longitude": 55.20426,
    "logo": "",
    "openMatTimes": [
      "None Listed"
    ],
    "address": "",
    "email": "",
    "phone": "",
    "vetted": false
  }
]
